{
    "stores":[
        {
            "id":1,
            "name":"Walgreens",
            "lat":40.64400252810672,
            "lng":-75.39853173223706,
            "zipcode":"18017"
        },
        {
            "id":2,
            "name":"CVS",
            "lat":40.619752799536336,
            "lng":-75.38131720709013,
            "zipcode":"18015"
        },
        {
            "id":3,
            "name":"Sam's Club",
            "lat":40.651538197925625,
            "lng":-75.44242865643987,
            "zipcode":"18019"
        }, 
        {
            "id":4,
            "name":"Rite Aid",
            "lat":40.64528652832939,
            "lng":-75.34767157767287,
            "zipcode":"18017"
        },
        {
            "id":5,
            "name":"Walmart",
            "lat":40.68345318046819,
            "lng":-75.33752838345004,
            "zipcode":"18020"
        },
        {
            "id":6,
            "name":"Wegmans",
            "lat":40.67705977021456,
            "lng":-75.3923035350631,
            "zipcode":"18017"
        },
        {
            "id":7,
            "name":"GIANT",
            "lat":40.63747111776629,
            "lng":-75.41770941850065,
            "zipcode":"18018"
        },
        {
            "id":8,
            "name":"Weis Markets",
            "lat":40.65101724782831,
            "lng":-75.40534979953104,
            "zipcode":"18017"
        }
    ]
}