{
    "stores":[
        {
            "id":1,
            "name":"Walgreens",
            "lat":40.61862314219109,
            "lng":-75.43441164990205,
            "zipcode":"18017"
        },
        {
            "id":2,
            "name":"CVS",
            "lat":40.611925005664894,
            "lng":-75.38280114006707,
            "zipcode":"18015"
        },
        {
            "id":3,
            "name":"Sam's Club",
            "lat":40.638289422252726, 
            "lng":-75.44312815575067,
            "zipcode":"18019"
        }, 
        {
            "id":4,
            "name":"Rite Aid",
            "lat":40.611644167804215,
            "lng":-75.37669319244837,
            "zipcode":"18017"
        },
        {
            "id":5,
            "name":"Walmart",
            "lat":40.672810403879026, 
            "lng":-75.342327231112,
            "zipcode":"18020"
        },
        {
            "id":6,
            "name":"Wegmans",
            "lat":40.665284616691224, 
            "lng":-75.3889285765224,
            "zipcode":"18017"
        },
        {
            "id":7,
            "name":"GIANT",
            "lat":40.62724938723895, 
            "lng":-75.41870240387077,
            "zipcode":"18018"
        },
        {
            "id":8,
            "name":"Weis Markets",
            "lat":40.67419177227158, 
            "lng":-75.38897271280744,
            "zipcode":"18017"
        }
    ]
}